Fac_Name,lat,lon,State_Name,Fac_Use
DRAKE FIELD,36.00508333321049,-94.17005555628565,ARKANSAS,PU
SOUTH ARKANSAS RGNL AT GOODWIN FIELD,33.2212378061883,-92.81174888938939,ARKANSAS,PU
BOONE COUNTY,36.26152055615798,-93.15472888891976,ARKANSAS,PU
NORTHWEST ARKANSAS RGNL,36.28157916717313,-94.30776555559267,ARKANSAS,PU
TEXARKANA RGNL-WEBB FIELD,33.45372222162944,-93.99102777814919,ARKANSAS,PU
FORT SMITH RGNL,35.33658333292318,-94.36744444428196,ARKANSAS,PU
BILL AND HILLARY CLINTON NATIONAL/ADAMS FIELD,34.729444443958606,-92.22477777827153,ARKANSAS,PU
